[
    {
        "id": 4104,
        "name": "Turm\u00f6l Quick",
        "location": {
            "address": "Triglavstra\u00dfe 1",
            "postalCode": "9500",
            "city": "Villach",
            "latitude": 46.5939688,
            "longitude": 13.8435871
        }
    },
    {
        "id": 1474311,
        "name": "Diskont Tankstelle",
        "location": {
            "address": "K\u00e4rntner Stra\u00dfe 27 (\"Hofer-Parkplatz\")",
            "postalCode": "9500",
            "city": "Villach",
            "latitude": 46.59742,
            "longitude": 13.83869
        }
    },
    {
        "id": 1470126,
        "name": "M3 Drautank",
        "location": {
            "address": "Karawankenweg 17",
            "postalCode": "9500",
            "city": "Villach",
            "latitude": 46.597852,
            "longitude": 13.850062
        }
    },
    {
        "id": 96324,
        "name": "F. LEITNER - Spar Express",
        "location": {
            "address": "Tirolerstrasse 10",
            "postalCode": "9500",
            "city": "Villach",
            "latitude": 46.61335194274116,
            "longitude": 13.838028834596964
        }
    },
    {
        "id": 1354685,
        "name": "JET TANKSTELLE",
        "location": {
            "address": "KARAWANKENWEG 18",
            "postalCode": "9500",
            "city": "VILLACH",
            "latitude": 46.59817,
            "longitude": 13.848953
        }
    },
    {
        "id": 1474193,
        "name": "eni",
        "location": {
            "address": "Italiener Strasse 57",
            "postalCode": "9500",
            "city": "Villach",
            "latitude": 46.603335,
            "longitude": 13.840528
        }
    },
    {
        "id": 3053,
        "name": "SOCAR Tankstelle",
        "location": {
            "address": "Italiener Stra\u00dfe 44",
            "postalCode": "9500",
            "city": "Villach",
            "latitude": 46.6075251,
            "longitude": 13.8414415
        }
    }
]